{
"type": "FeatureCollection",
"name": "historical_sites_and_monuments",
"crs": { "type": "name", "properties": { "name": "urn:ogc:def:crs:OGC:1.3:CRS84" } },
"features": [
{ "type": "Feature", "properties": { "name": "Bower's Tower", "type": "Historical Buildings" }, "geometry": { "type": "Point", "coordinates": [ 3.896756000402812, 7.391958999677498, 0.0 ] } },
{ "type": "Feature", "properties": { "name": "Agodi Garden", "type": "Tourist Sites" }, "geometry": { "type": "Point", "coordinates": [ 3.898380580426343, 7.408191375553956, 0.0 ] } },
{ "type": "Feature", "properties": { "name": "Cultural Center Mokola Hill", "type": "Historical Buildings" }, "geometry": { "type": "Point", "coordinates": [ 3.895529000337113, 7.402591999953517, 0.0 ] } },
{ "type": "Feature", "properties": { "name": "Mapo Hall", "type": "Historical Buildings" }, "geometry": { "type": "Point", "coordinates": [ 3.899263931489915, 7.377734466795016, 0.0 ] } },
{ "type": "Feature", "properties": { "name": "David Hinderer's House", "type": "Historical Buildings" }, "geometry": { "type": "Point", "coordinates": [ 3.897824000163602, 7.362963999750442, 0.0 ] } },
{ "type": "Feature", "properties": { "name": "Zoological Garden", "type": "Tourist Sites" }, "geometry": { "type": "Point", "coordinates": [ 3.895490000162595, 7.443651000002332, 0.0 ] } },
{ "type": "Feature", "properties": { "name": "Trans Amusement Park", "type": "Tourist Sites" }, "geometry": { "type": "Point", "coordinates": [ 3.910285607596465, 7.432727795053435, 0.0 ] } },
{ "type": "Feature", "properties": { "name": "Delesolu Compound", "type": "Historical Buildings" }, "geometry": { "type": "Point", "coordinates": [ 3.907809999779562, 7.388335999553486, 0.0 ] } },
{ "type": "Feature", "properties": { "name": "Irefin Palace", "type": "Historical Buildings" }, "geometry": { "type": "Point", "coordinates": [ 3.914714000004135, 7.389251000166561, 0.0 ] } },
{ "type": "Feature", "properties": { "name": "St. Peter's Anglican Church", "type": "Historical Buildings" }, "geometry": { "type": "Point", "coordinates": [ 3.873001999819667, 7.44957499986131, 0.0 ] } },
{ "type": "Feature", "properties": { "name": "Eleyele Water works", "type": "Tourist Sites" }, "geometry": { "type": "Point", "coordinates": [ 3.855265780203172, 7.420635539103705, 0.0 ] } },
{ "type": "Feature", "properties": { "name": "St. James Cathedral", "type": "Historical Buildings" }, "geometry": { "type": "Point", "coordinates": [ 3.880743203801094, 7.380521746047941, 0.0 ] } },
{ "type": "Feature", "properties": { "name": "Ile Onibeji Bode", "type": "Historical Buildings" }, "geometry": { "type": "Point", "coordinates": [ 3.890435000391665, 7.364380999547194, 0.0 ] } },
{ "type": "Feature", "properties": { "name": "National Museum of Unity", "type": "Historical Buildings" }, "geometry": { "type": "Point", "coordinates": [ 3.869674999574635, 7.386636000227079, 0.0 ] } },
{ "type": "Feature", "properties": { "name": "Central Mosque", "type": "Historical Buildings" }, "geometry": { "type": "Point", "coordinates": [ 3.955863000435687, 7.344421000266371, 0.0 ] } },
{ "type": "Feature", "properties": { "name": "Dominican Institute", "type": "Tourist Sites" }, "geometry": { "type": "Point", "coordinates": [ 3.900061000186852, 7.434794000166819, 0.0 ] } },
{ "type": "Feature", "properties": { "name": "Ibikunles Palace", "type": "Historical Buildings" }, "geometry": { "type": "Point", "coordinates": [ 3.891679238203386, 7.384903823427023, 0.0 ] } },
{ "type": "Feature", "properties": { "name": "Agbaje Mansion", "type": "Historical Buildings" }, "geometry": { "type": "Point", "coordinates": [ 3.872744999721815, 7.428647000120018, 0.0 ] } },
{ "type": "Feature", "properties": { "name": "Botanical Gardens", "type": "Tourist Sites" }, "geometry": { "type": "Point", "coordinates": [ 3.897019000275386, 7.454568000150706, 0.0 ] } },
{ "type": "Feature", "properties": { "name": "Wesley College of Science", "type": "Historical Buildings" }, "geometry": { "type": "Point", "coordinates": [ 3.911596999935983, 7.37028699982316, 0.0 ] } },
{ "type": "Feature", "properties": { "name": "Baale Oyewole Palace", "type": "Historical Buildings" }, "geometry": { "type": "Point", "coordinates": [ 3.867316791207542, 7.395679655357689, 0.0 ] } },
{ "type": "Feature", "properties": { "name": "University College Hospital", "type": "Historical Buildings" }, "geometry": { "type": "Point", "coordinates": [ 3.901832999813312, 7.402908999730292, 0.0 ] } },
{ "type": "Feature", "properties": { "name": "International Institute of Tropical Agriculture", "type": "Tourist Sites" }, "geometry": { "type": "Point", "coordinates": [ 3.909878000244859, 7.501391999904056, 0.0 ] } },
{ "type": "Feature", "properties": { "name": "Nigerian Television Authority", "type": "Tourist Sites" }, "geometry": { "type": "Point", "coordinates": [ 3.916941999752915, 7.396717000219933, 0.0 ] } },
{ "type": "Feature", "properties": { "name": "Liberty Stadium", "type": "Tourist Sites" }, "geometry": { "type": "Point", "coordinates": [ 3.874084000156238, 7.366143000070559, 0.0 ] } },
{ "type": "Feature", "properties": { "name": "Cocoa Research Institute of Nigeria", "type": "Tourist Sites" }, "geometry": { "type": "Point", "coordinates": [ 3.86774500043536, 7.225418999947593, 0.0 ] } },
{ "type": "Feature", "properties": { "name": "Forestry Research Institute of Nigeria", "type": "Tourist Sites" }, "geometry": { "type": "Point", "coordinates": [ 3.862826000368563, 7.391266999911974, 0.0 ] } },
{ "type": "Feature", "properties": { "name": "National Horticultural Research Institute", "type": "Tourist Sites" }, "geometry": { "type": "Point", "coordinates": [ 3.851933999933339, 7.405478999719254, 0.0 ] } },
{ "type": "Feature", "properties": { "name": "Cocoa House", "type": "Tourist Sites" }, "geometry": { "type": "Point", "coordinates": [ 3.880020507864304, 7.386946599090793, 0.0 ] } },
{ "type": "Feature", "properties": { "name": "Fun Factory", "type": "Tourist Sites" }, "geometry": { "type": "Point", "coordinates": [ 3.904082961044028, 7.421999993126832, 0.0 ] } },
{ "type": "Feature", "properties": { "name": "Adasingba Stadium", "type": "Tourist Sites" }, "geometry": { "type": "Point", "coordinates": [ 3.88566374857758, 7.393249082862908, 0.0 ] } },
{ "type": "Feature", "properties": { "name": "Ibadan Golf Club", "type": "Tourist Sites" }, "geometry": { "type": "Point", "coordinates": [ 3.883244367489838, 7.409355418579113, 0.0 ] } },
{ "type": "Feature", "properties": { "name": "Ibadan Golf Course", "type": "Tourist Sites" }, "geometry": { "type": "Point", "coordinates": [ 3.882465831666781, 7.404024653786199, 0.0 ] } },
{ "type": "Feature", "properties": { "name": "Ibadan Recreation Club 1902", "type": "Tourist Sites" }, "geometry": { "type": "Point", "coordinates": [ 3.884554970860824, 7.399444039754895, 0.0 ] } },
{ "type": "Feature", "properties": { "name": "Ibadan Tennis  Club", "type": "Tourist Sites" }, "geometry": { "type": "Point", "coordinates": [ 3.870984101953829, 7.376986932633153, 0.0 ] } },
{ "type": "Feature", "properties": { "name": "Olubadan Stadium", "type": "Tourist Sites" }, "geometry": { "type": "Point", "coordinates": [ 3.874693997107683, 7.381778005372741, 0.0 ] } },
{ "type": "Feature", "properties": { "name": "Aafin Olubadan", "type": "Tourist Sites" }, "geometry": { "type": "Point", "coordinates": [ 3.894241713490616, 7.373857155591885, 0.0 ] } },
{ "type": "Feature", "properties": { "name": "IAR&T", "type": "Tourist Sites" }, "geometry": { "type": "Point", "coordinates": [ 3.844468809185721, 7.377460867193331, 0.0 ] } },
{ "type": "Feature", "properties": { "name": "Moore Plantation", "type": "Tourist Sites" }, "geometry": { "type": "Point", "coordinates": [ 3.839804995999724, 7.381778004592336, 0.0 ] } },
{ "type": "Feature", "properties": { "name": "Ali Balogun Ibikunle Palace", "type": "Historical Buildings" }, "geometry": { "type": "Point", "coordinates": [ 3.893767756696484, 7.380777505443824, 0.0 ] } },
{ "type": "Feature", "properties": { "name": "University of Ibadan", "type": "Historical Buildings" }, "geometry": { "type": "Point", "coordinates": [ 3.896667304081406, 7.445354816759386, 0.0 ] } },
{ "type": "Feature", "properties": { "name": "Government House", "type": "Historical Buildings" }, "geometry": { "type": "Point", "coordinates": [ 3.916465175437985, 7.400860667970333, 0.0 ] } },
{ "type": "Feature", "properties": { "name": "Methodist Cathedral", "type": "Historical Buildings" }, "geometry": { "type": "Point", "coordinates": [ 3.888289196916914, 7.379795474766061, 0.0 ] } },
{ "type": "Feature", "properties": { "name": "Ministry of Commerce and Cooperative", "type": "Historical Buildings" }, "geometry": { "type": "Point", "coordinates": [ 3.90985590020652, 7.423788999850437, 0.0 ] } },
{ "type": "Feature", "properties": { "name": "Office Complex of Ministry of Culture and Tourism", "type": "Historical Buildings" }, "geometry": { "type": "Point", "coordinates": [ 3.90985590020652, 7.423788999850437, 0.0 ] } }
]
}
